City_ID,City,Lat,Lng,Max Temp,Humidity,Cloudiness,Wind Speed,Country,Date
0,hawaiian paradise park,19.5933,-154.9731,300.3,72,75,0.89,US,1699818120
1,port alfred,-33.5906,26.891,287.69,85,7,0.45,ZA,1699818187
2,atafu village,-8.5421,-172.5159,301.9,71,100,0.98,TK,1699818644
3,zag,46.9441,99.165,257.26,75,55,1.45,MN,1699818645
4,bhimunipatnam,17.8833,83.4333,295.88,77,71,2.66,IN,1699818645
5,mokhsogollokh,61.4681,128.9203,259.75,87,100,4.83,RU,1699818645
6,adamstown,-25.066,-130.1015,295.89,82,100,8.04,PN,1699818645
7,metlili chaamba,32.2667,3.6333,295.67,16,0,0.0,DZ,1699818474
8,alaghsas,17.0187,8.0168,299.33,12,0,5.17,NE,1699818646
9,gusinje,42.5638,19.8333,278.62,99,100,1.16,ME,1699818646
10,olonkinbyen,70.9221,-8.7187,269.95,66,95,1.79,SJ,1699818647
11,kudahuvadhoo,2.6708,72.8944,301.01,72,32,1.7,MV,1699818647
12,puerto natales,-51.7236,-72.4875,286.4,47,75,9.77,CL,1699818647
13,jos,9.9167,8.9,294.93,32,12,0.81,NG,1699818648
14,port-aux-francais,-49.35,70.2167,279.14,91,100,11.63,TF,1699818277
15,betong,5.7743,101.0723,295.48,99,68,0.73,TH,1699818648
16,papatowai,-46.5619,169.4708,285.27,91,100,1.99,NZ,1699818379
17,lihue,21.9789,-159.3672,299.73,75,40,9.77,US,1699818195
18,ushuaia,-54.8,-68.3,283.94,53,0,3.6,AR,1699818650
19,avarua,-21.2078,-159.775,295.18,68,100,4.12,CK,1699818142
20,tando jam,25.4272,68.5362,296.67,19,100,1.52,PK,1699818650
21,stanley,54.868,-1.6985,279.69,94,75,3.6,GB,1699818424
22,thompson,55.7435,-97.8558,271.24,93,100,3.09,CA,1699818285
23,sanctuary point,-35.1114,150.629,290.0,75,100,4.53,AU,1699818651
24,campina verde,-19.5356,-49.4864,313.22,13,86,3.11,BR,1699818651
25,mount zion,39.7714,-88.8742,288.63,38,0,4.63,US,1699818652
26,kerikeri,-35.2268,173.9474,288.16,62,0,0.33,NZ,1699818373
27,albany,42.6001,-73.9662,279.15,54,9,0.45,US,1699818306
28,bamboo flat,11.7,92.7167,298.2,94,75,0.51,IN,1699818400
29,ilulissat,69.2167,-51.1,263.16,62,75,0.0,GL,1699818301
30,waitangi,-43.9535,-176.5597,286.38,82,98,3.13,NZ,1699818653
31,talnakh,69.4865,88.3972,270.49,95,100,4.97,RU,1699818653
32,laguna paiva,-31.3039,-60.6589,296.48,81,100,4.37,AR,1699818654
33,grytviken,-54.2811,-36.5092,277.9,82,100,1.9,GS,1699818055
34,dunedin,-45.8742,170.5036,288.32,66,100,3.37,NZ,1699818655
35,salekhard,66.53,66.6019,262.65,87,6,4.3,RU,1699818495
36,bethel,41.3712,-73.414,280.49,56,0,2.57,US,1699818338
37,bilibino,68.0546,166.4372,259.91,92,100,3.18,RU,1699818222
38,saipan,15.1355,145.701,301.54,78,20,4.63,MP,1699818656
39,st. john's,47.5649,-52.7093,274.35,83,100,3.6,CA,1699818205
40,iqaluit,63.7506,-68.5145,256.0,77,20,7.72,CA,1699818324
41,luderitz,-26.6481,15.1594,292.23,56,0,9.33,,1699818382
42,tiksi,71.6872,128.8694,257.57,90,100,7.28,RU,1699818658
43,klyuchi,52.2667,79.1667,278.33,87,100,5.06,RU,1699818370
44,codrington,-38.2667,141.9667,283.08,80,51,2.4,AU,1699818659
45,lamu,-2.2717,40.902,299.27,87,100,2.92,KE,1699818659
46,sarmiento,-45.5882,-69.07,289.03,22,4,9.53,AR,1699818660
47,puerto ayora,-0.7393,-90.3518,303.13,89,40,4.47,EC,1699818660
48,kolonia town,6.964,158.206,301.75,75,96,4.23,FM,1699818660
49,constantia,44.1833,28.65,278.53,44,97,4.71,RO,1699818492
50,kusa,55.3383,59.4406,272.36,93,65,1.1,RU,1699818661
51,kristiansund,63.1115,7.732,274.51,75,0,1.54,NO,1699818661
52,nouadhibou,20.931,-17.0347,295.14,68,0,5.66,MR,1699818662
53,isafjordur,66.0755,-23.124,275.42,80,100,2.18,IS,1699818614
54,tanout,14.9709,8.8879,299.39,12,100,5.25,NE,1699818663
55,margaret river,-33.95,115.0667,287.1,88,100,5.53,AU,1699818663
56,mynamaki,60.7446,22.0243,274.88,99,100,2.39,FI,1699818664
57,vrangel',42.7297,133.0839,268.96,58,5,6.35,RU,1699818665
58,port mathurin,-19.6833,63.4167,298.04,81,0,2.54,MU,1699818319
59,sterling,39.0062,-77.4286,284.9,53,20,2.24,US,1699818387
60,minas de marcona,-15.2119,-75.1103,289.72,82,85,6.97,PE,1699818616
61,aasiaat,68.7098,-52.8699,259.21,84,91,2.95,GL,1699818337
62,bubaque,11.2833,-15.8333,301.48,69,22,4.19,GW,1699818275
63,lianzhou,24.7811,112.3825,281.69,86,100,2.6,CN,1699818667
64,rio grande,-32.035,-52.0986,289.23,89,100,2.72,BR,1699818630
65,arkhangel'sk,64.5401,40.5433,269.89,93,19,3.07,RU,1699818668
66,jacmel,18.2342,-72.5347,307.06,60,24,1.5,HT,1699818668
67,benguela,-12.5763,13.4055,299.59,77,99,0.1,AO,1699818669
68,shingu,33.7333,135.9833,283.76,76,64,9.11,JP,1699818669
69,trinidad,-14.8333,-64.9,312.14,37,20,7.72,BO,1699818669
70,champerico,14.3,-91.9167,307.45,68,4,2.7,GT,1699818669
71,port elizabeth,-33.918,25.5701,289.31,79,0,4.63,ZA,1699818496
72,kingston,17.997,-76.7936,306.68,67,20,10.29,JM,1699818441
73,illizi,26.4833,8.4667,294.04,29,0,2.16,DZ,1699818670
74,usogorsk,63.4106,48.6872,266.85,97,96,3.58,RU,1699818671
75,berndorf,47.9457,16.1097,278.6,68,99,1.28,AT,1699818671
76,blackmans bay,-43.0167,147.3167,282.89,75,8,0.45,AU,1699818292
77,chibougamau,49.9168,-74.3659,268.94,86,100,2.57,CA,1699818442
78,quthing,-30.4,27.7003,288.91,57,0,3.07,LS,1699818673
79,kajiki,31.7333,130.6667,282.66,75,64,6.71,JP,1699818673
80,west island,-12.1568,96.8225,299.14,89,75,3.6,CC,1699818577
81,lisala,2.15,21.5167,294.38,99,86,0.68,CD,1699818674
82,batang berjuntai,3.3833,101.4167,300.29,100,86,1.27,MY,1699818466
83,ribeira grande,38.5167,-28.7,293.02,94,75,9.26,PT,1699818675
84,nuuk,64.1835,-51.7216,268.08,67,100,1.34,GL,1699818676
85,yakymivka,46.6897,35.1536,282.23,75,60,5.75,UA,1699818676
86,phalodi,27.1333,72.3667,294.47,33,48,3.37,IN,1699818676
87,saint-philippe,-21.3585,55.7679,293.92,82,43,2.98,RE,1699818677
88,chagoda,59.164,35.3285,275.19,96,100,5.59,RU,1699818677
89,yellowknife,62.456,-114.3525,266.71,97,100,9.26,CA,1699818504
90,camalu,30.85,-116.0667,295.83,30,0,4.54,MX,1699818616
91,punta arenas,-53.15,-70.9167,286.21,44,75,15.43,CL,1699818528
92,oruro,-17.9833,-67.15,290.05,36,22,8.15,BO,1699818678
93,hami,42.8,93.45,276.31,29,100,1.4,CN,1699818678
94,susuman,62.7833,148.1667,239.59,97,100,0.31,RU,1699818332
95,angel r. cabada,18.5833,-95.4333,297.45,90,100,7.74,MX,1699818679
96,afaahiti,-17.75,-149.2833,301.08,82,22,4.07,PF,1699818679
97,pisco,-13.7,-76.2167,295.18,73,0,3.6,PE,1699818624
98,bikenibeu village,1.3673,173.1241,300.13,94,100,4.63,KI,1699818680
99,mwinilunga,-11.7358,24.4293,290.73,94,100,1.45,ZM,1699818680
100,amga,60.8953,131.9608,259.63,91,100,3.59,RU,1699818681
101,tralee,52.2704,-9.7026,283.23,97,100,3.47,IE,1699818681
102,nadym,65.5333,72.5167,263.96,93,52,5.69,RU,1699818372
103,iskateley,67.6803,53.1512,264.83,94,16,2.68,RU,1699818681
104,fale old settlement,-9.3852,-171.2468,301.81,72,71,0.97,TK,1699818433
105,colby,39.3958,-101.0524,292.64,19,0,6.69,US,1699818135
106,murun-kuren,49.6342,100.1625,263.83,54,21,1.71,MN,1699818682
107,miragoane,18.4423,-73.0876,301.77,63,10,1.7,HT,1699818683
108,happy valley-goose bay,53.3168,-60.3315,272.32,64,75,5.14,CA,1699818683
109,thunder bay,48.4001,-89.3168,280.14,81,100,2.06,CA,1699818417
110,udachny,66.4167,112.4,259.51,84,100,2.66,RU,1699818683
111,auki,-8.7676,160.7034,298.46,86,100,1.49,SB,1699818683
112,tezu,27.9167,96.1667,291.5,43,0,2.02,IN,1699818684
113,tofol,5.3248,163.0078,300.24,73,97,9.89,FM,1699818684
114,hadibu,12.65,54.0333,300.05,82,54,5.94,YE,1699818684
115,praia da vitoria,38.7333,-27.0667,294.29,83,40,7.73,PT,1699818685
116,adam,22.3756,57.5233,295.34,50,25,2.15,OM,1699818685
117,jamestown,42.097,-79.2353,283.16,48,0,1.34,US,1699818685
118,edinburgh of the seven seas,-37.0676,-12.3116,287.31,82,6,8.59,SH,1699818685
119,malanje,-9.5402,16.341,291.25,99,98,1.34,AO,1699818686
120,longyearbyen,78.2186,15.6401,273.06,59,75,5.66,SJ,1699818686
121,villa yapacani,-17.4,-63.8333,312.84,25,75,5.7,BO,1699818686
122,labuan,5.2767,115.2417,300.35,89,20,1.54,MY,1699818687
123,moab,38.5733,-109.5498,287.31,21,0,1.82,US,1699818505
124,aguadilla,18.4275,-67.1541,304.78,79,0,8.23,PR,1699818688
125,santa elena de uairen,4.6167,-61.1333,298.74,65,100,0.72,VE,1699818688
126,andkhoy,36.9529,65.1238,285.74,42,0,2.92,AF,1699818688
127,carutapera,-1.195,-46.02,301.51,66,11,4.23,BR,1699818688
128,caras,-9.0467,-77.8114,295.88,64,76,3.08,PE,1699818689
129,horta,38.5333,-28.6333,292.6,91,75,9.26,PT,1699818413
130,darlington,54.5243,-1.5504,280.85,84,75,5.66,GB,1699818689
131,kupang,-10.1667,123.5833,299.47,94,5,1.54,ID,1699818690
132,wailua homesteads,22.0669,-159.378,300.39,81,40,9.77,US,1699818690
133,isla vista,34.4133,-119.861,304.51,21,0,2.06,US,1699818690
134,tutoia,-2.7619,-42.2744,300.64,73,0,5.24,BR,1699818690
135,anna regina,7.2644,-58.5077,301.77,72,9,4.91,GY,1699818691
136,patterson,37.4716,-121.1297,294.83,28,80,3.95,US,1699818691
137,nar'yan-mar,67.6713,53.087,264.88,94,16,2.68,RU,1699818432
138,coracora,-15.0333,-73.7833,291.17,40,46,5.66,PE,1699818692
139,bredasdorp,-34.5322,20.0403,287.25,80,0,1.11,ZA,1699818114
140,sydney,-33.8679,151.2073,291.68,81,75,6.69,AU,1699818531
141,freguesia do ribeirao da ilha,-27.7177,-48.5627,304.07,55,20,6.17,BR,1699818692
142,zaozersk,69.4005,32.4476,263.19,100,95,3.77,RU,1699818693
143,vallenar,-28.5708,-70.7581,301.72,16,0,4.89,CL,1699818495
144,fort bragg,35.139,-79.006,290.83,52,0,5.66,US,1699818335
145,gislaved,57.3044,13.5408,278.48,87,99,1.67,SE,1699818693
146,cadale,2.7603,46.3222,301.27,76,17,3.83,SO,1699818694
147,kavieng,-2.5744,150.7967,300.33,73,100,2.55,PG,1699818694
148,newman,37.3138,-121.0208,294.85,29,79,3.39,US,1699818694
149,souillac,-20.5167,57.5167,295.36,88,20,0.0,MU,1699818446
150,kapuskasing,49.4169,-82.4331,274.2,86,100,7.2,CA,1699818421
151,nemuro,43.3236,145.575,276.68,63,67,4.78,JP,1699818696
152,nizhnesortymskiy,62.4397,71.7603,270.24,96,99,5.63,RU,1699818696
153,ganjam,19.3833,85.0667,296.83,80,98,2.16,IN,1699818696
154,tan-tan,28.438,-11.1032,295.65,53,5,3.32,MA,1699818697
155,holguin,20.8872,-76.2631,303.87,66,40,6.69,CU,1699818697
156,madalena,41.2162,-8.3345,291.35,96,99,3.66,PT,1699818697
157,mount pearl,47.5166,-52.7813,273.62,84,100,3.6,CA,1699818697
158,youghal,51.95,-7.8506,285.71,100,100,6.78,IE,1699818698
159,ishimbay,53.4545,56.0415,274.41,85,73,2.63,RU,1699818698
160,sitka,57.0531,-135.33,278.09,81,0,2.57,US,1699818195
161,launceston,-41.45,147.1667,281.37,87,7,3.09,AU,1699818683
162,vilyuchinsk,52.9306,158.4028,270.89,80,64,3.47,RU,1699818699
163,arno,60.1167,18.6333,277.47,97,100,4.96,SE,1699818699
164,colonia,50.9333,6.95,280.35,86,0,2.57,DE,1699818700
165,umm ruwaba,12.9061,31.2158,306.18,29,100,0.92,SD,1699818700
166,sao francisco,-15.9486,-44.8644,311.02,15,2,3.1,BR,1699818694
167,ouddorp,51.8117,3.9347,282.14,93,91,5.66,NL,1699818701
168,mount gambier,-37.8333,140.7667,280.88,94,47,0.97,AU,1699818244
169,wakkanai,45.4094,141.6739,273.76,63,100,4.92,JP,1699818702
170,saint-pierre,-21.3393,55.4781,293.97,78,0,1.54,RE,1699818702
171,syevyerodonets'k,48.9483,38.4917,283.11,67,95,9.42,UA,1699818702
172,walvis bay,-22.9575,14.5053,290.68,72,10,3.09,,1699818703
173,zacualpa,15.0833,-90.8333,295.09,58,33,2.88,GT,1699818703
174,guerrero negro,27.9769,-114.0611,298.93,21,0,2.05,MX,1699818538
175,ca mau,9.1769,105.15,298.04,95,88,3.18,VN,1699818703
176,labytnangi,66.6572,66.4183,260.83,90,8,3.65,RU,1699818704
177,jalai nur,49.45,117.7,260.86,91,10,2.52,CN,1699818704
178,rongelap,11.1635,166.8941,300.69,83,100,8.78,MH,1699818704
179,rikaze,29.25,88.8833,272.21,22,0,1.83,CN,1699818705
180,la'ie,21.6477,-157.9253,301.13,76,36,3.58,US,1699818705
181,port isabel,26.0734,-97.2086,292.17,91,100,5.66,US,1699818706
182,aykhal,66.0,111.5,261.56,84,100,3.58,RU,1699818706
183,wschowa,51.807,16.3166,279.21,86,100,4.31,PL,1699818706
184,island harbour,50.724,-1.2758,284.83,93,100,1.34,GB,1699818706
185,morehead city,34.7229,-76.726,286.15,89,100,8.23,US,1699818660
186,teguise,29.0605,-13.564,293.27,83,0,3.09,ES,1699818707
187,puerto aysen,-45.4,-72.7,280.68,97,99,2.66,CL,1699818707
188,sorong,-0.8833,131.25,298.93,88,100,3.62,ID,1699818708
189,goure,13.9835,10.2704,299.46,12,10,4.56,NE,1699818708
190,keflavik,64.0049,-22.5624,277.39,70,0,8.75,IS,1699818480
191,ilhabela,-23.7781,-45.3581,298.85,84,92,1.37,BR,1699818700
192,cedeira,43.6797,-8.0209,291.47,77,79,9.61,ES,1699818709
193,kourou,5.1552,-52.6478,301.95,71,53,3.77,GF,1699818709
194,waddan,29.1614,16.139,294.22,52,0,3.69,LY,1699818710
195,arraial do cabo,-22.9661,-42.0278,303.13,74,0,5.14,BR,1699818411
196,college,64.8569,-147.8028,266.12,79,100,2.57,US,1699818098
197,acarau,-2.8856,-40.12,301.3,65,0,7.69,BR,1699818711
198,tamanrasset,22.785,5.5228,293.1,14,0,2.06,DZ,1699818711
199,faranah,10.0404,-10.7434,298.35,47,45,0.84,GN,1699818711
200,whitehorse,60.7161,-135.0538,271.58,86,100,4.63,CA,1699818711
201,keetmanshoop,-26.5833,18.1333,300.66,12,0,5.14,,1699818712
202,pudozh,61.8099,36.5345,275.9,98,100,2.68,RU,1699818713
203,ladnun,27.65,74.3833,292.02,45,3,2.95,IN,1699818714
204,birzai,56.2,24.75,278.3,92,100,3.72,LT,1699818714
205,badger,64.8,-147.5333,266.08,79,100,2.57,US,1699818598
206,port lincoln,-34.7333,135.8667,286.0,83,77,5.2,AU,1699818461
207,harar,9.3094,42.1258,290.09,77,38,1.11,ET,1699818717
208,kuusamo,65.9667,29.1833,266.17,93,100,2.57,FI,1699818717
209,rameswaram,9.2833,79.3,301.39,73,100,9.71,IN,1699818717
210,tonnerre,47.8563,3.9737,285.24,97,100,5.88,FR,1699818717
211,prado,-17.3411,-39.2208,299.3,74,17,8.22,BR,1699818718
212,enewetak,11.3474,162.3373,300.93,80,100,9.42,MH,1699818718
213,hamilton,39.1834,-84.5333,288.65,45,0,3.6,US,1699818718
214,san patricio,28.017,-97.5169,290.12,95,100,4.54,US,1699818337
215,akureyri,65.6835,-18.0878,267.11,93,0,1.03,IS,1699818718
216,manacapuru,-3.2997,-60.6206,305.96,52,90,3.23,BR,1699818533
217,monrovia,6.3005,-10.7969,300.02,86,84,4.0,LR,1699818719
218,howrah,22.5892,88.3103,296.15,78,7,1.54,IN,1699818719
219,vorgashor,67.5833,63.95,264.08,94,43,5.3,RU,1699818399
220,laojunmiao,39.8333,97.7333,270.88,46,0,0.49,CN,1699818719
221,kailua-kona,19.6406,-155.9956,301.64,77,40,3.6,US,1699818720
222,omdurman,15.6445,32.4777,306.96,24,48,3.41,SD,1699818720
223,utrik,11.2278,169.8474,301.21,80,100,8.22,MH,1699818720
224,uturoa,-16.7333,-151.4333,300.46,80,11,4.0,PF,1699818720
225,choyr,46.3611,108.3611,259.57,77,2,0.38,MN,1699818721
226,kapa'a,22.0752,-159.319,301.14,81,40,9.77,US,1699818721
227,sarupathar,26.1984,93.8094,291.28,91,0,0.48,IN,1699818474
228,ust-nera,64.5667,143.2,248.68,99,100,1.02,RU,1699818635
229,sao tome,0.3365,6.7273,299.76,86,49,3.27,ST,1699818721
230,huanren,41.2647,125.3667,266.22,64,2,1.49,CN,1699818722
231,chabahar,25.2919,60.643,299.07,54,100,4.99,IR,1699818722
232,franceville,-1.6333,13.5836,295.54,92,89,1.39,GA,1699818722
233,pskov,57.8136,28.3496,275.1,100,100,3.13,RU,1699818722
234,mulanje,-16.0316,35.5,297.5,67,9,2.03,MW,1699818723
235,coari,-4.085,-63.1414,306.64,48,100,0.85,BR,1699818723
236,ancud,-41.8697,-73.8203,282.93,52,40,4.83,CL,1699818723
237,kununurra,-15.7667,128.7333,300.14,89,100,2.06,AU,1699818723
238,robat karim,35.4846,51.0829,289.07,44,20,1.54,IR,1699818724
239,montepuez,-13.1256,38.9997,297.87,70,85,3.52,MZ,1699818724
240,poplar bluff,36.757,-90.3929,291.11,37,0,1.54,US,1699818725
241,vozhega,60.4725,40.2213,273.93,96,100,5.35,RU,1699818725
242,novodvinsk,64.4165,40.8122,269.7,93,21,3.14,RU,1699818726
243,hermanus,-34.4187,19.2345,288.65,78,0,3.64,ZA,1699818590
244,papao,-17.75,-149.55,301.97,78,41,1.1,PF,1699818390
245,pocahontas,36.2615,-90.9712,290.29,47,0,2.06,US,1699818704
246,invercargill,-46.4,168.35,284.27,96,100,1.34,NZ,1699818285
247,lompoc,34.6391,-120.4579,302.42,14,0,2.06,US,1699818727
248,bakanas,44.8081,76.2772,278.75,60,62,2.99,KZ,1699818727
249,lebu,-37.6167,-73.65,284.31,57,3,8.29,CL,1699818510
250,xinyuan,37.3,99.0,265.27,33,0,2.89,CN,1699818727
251,georgetown,5.4112,100.3354,300.94,92,20,1.54,MY,1699818152
252,thinadhoo,0.5333,72.9333,300.56,76,92,1.44,MV,1699818728
253,jeddah,21.5169,39.2192,303.07,62,0,1.54,SA,1699818728
254,yulinshi,38.2906,109.7494,272.03,35,100,1.26,CN,1699818729
255,inarajan village,13.2736,144.7484,301.69,90,43,7.74,GU,1699818639
256,onega,63.9061,38.1404,269.74,85,26,5.52,RU,1699818730
257,magistral'nyy,56.1725,107.4458,262.24,91,96,0.86,RU,1699818730
258,taulaga,-11.0553,-171.0883,301.49,76,38,3.02,AS,1699818730
259,acapulco de juarez,16.8634,-99.8901,305.05,62,0,4.63,MX,1699818308
260,okhotsk,59.3833,143.3,255.6,81,1,10.42,RU,1699818731
261,atascadero,35.4894,-120.6707,300.07,28,59,3.64,US,1699818731
262,smithers,54.7804,-127.1743,270.33,100,75,1.54,CA,1699818732
263,gisborne,-38.6533,178.0042,289.76,56,0,0.81,NZ,1699818732
264,moapa valley,36.5805,-114.4703,296.3,11,1,0.87,US,1699818732
265,nelson bay,-32.7167,152.15,293.15,82,81,4.47,AU,1699818733
266,letlhakane,-21.4167,25.5833,303.43,18,30,2.66,BW,1699818733
267,vorkuta,67.5,64.0,264.0,94,35,5.1,RU,1699818597
268,waterloo,43.4668,-80.5164,279.83,65,0,2.57,CA,1699818656
269,jayapura,-2.5333,140.7,296.81,88,100,1.68,ID,1699818734
270,eldorado at santa fe,35.5264,-105.9347,290.03,20,0,6.69,US,1699818735
271,saudarkrokur,65.7461,-19.6394,273.37,57,100,2.45,IS,1699818735
272,necochea,-38.5473,-58.7368,286.48,43,99,7.09,AR,1699818736
273,priozersk,61.0393,30.1291,277.04,87,100,8.01,RU,1699818736
274,ivdel',60.6911,60.4206,274.92,81,100,1.79,RU,1699818736
275,khovd,48.0056,91.6419,267.43,93,94,0.2,MN,1699818486
276,inhambane,-23.865,35.3833,297.14,88,20,1.54,MZ,1699818737
277,kidal,18.4411,1.4078,300.33,10,0,4.59,ML,1699818480
278,yeniseysk,58.4497,92.1703,268.12,89,100,2.24,RU,1699818737
279,fauske,67.2588,15.3918,272.47,81,36,4.32,NO,1699818738
280,swellendam,-34.0226,20.4417,288.07,74,14,2.33,ZA,1699818738
281,banlung,13.7468,107.0045,293.42,94,35,1.47,KH,1699818738
282,faya-largeau,17.9257,19.1043,301.24,22,6,6.1,TD,1699818514
283,malango,-2.9627,119.9001,292.29,97,100,0.89,ID,1699818342
284,sishui,35.6489,117.2758,272.56,38,94,1.22,CN,1699818739
285,pawayan,28.0667,80.1,291.74,52,0,1.61,IN,1699818739
286,qaqortoq,60.7167,-46.0333,266.63,84,4,0.49,GL,1699818339
287,ta`u,-14.2336,-169.5144,300.75,81,14,5.45,AS,1699818740
288,camayenne,9.535,-13.6878,302.2,84,20,2.06,GN,1699818664
289,darnah,32.767,22.6367,294.36,80,61,3.74,LY,1699818740
290,funadhoo,6.15,73.2667,300.76,78,100,2.93,MV,1699818741
291,kodiak,57.79,-152.4072,274.88,60,0,2.06,US,1699818309
292,luwuk,-0.9516,122.7875,298.32,87,81,1.55,ID,1699818741
293,islamorada,24.9243,-80.6278,303.15,87,90,3.13,US,1699818702
294,coquimbo,-29.9533,-71.3436,292.0,59,20,6.69,CL,1699818742
295,senanga,-16.1167,23.2667,302.9,26,95,2.52,ZM,1699818742
296,rakovski,42.3,24.9667,284.07,49,100,0.68,BG,1699818742
297,revda,56.801,59.9303,273.0,90,59,2.84,RU,1699818742
298,yuzhno-kurilsk,44.0306,145.8556,275.58,80,18,3.86,RU,1699818743
299,vadso,70.0744,29.7487,269.24,86,0,7.2,NO,1699818231
300,sovetskaya gavan',48.9723,140.2878,263.21,73,70,4.64,RU,1699818743
301,dalandzadgad,43.5708,104.425,269.95,19,99,1.84,MN,1699818743
302,luganville,-15.5333,167.1667,297.52,75,100,7.34,VU,1699818744
303,orcopampa,-15.2661,-72.3417,285.1,74,100,2.15,PE,1699818744
304,la gi,10.6667,107.7833,298.1,89,36,3.02,VN,1699818744
305,karratha,-20.7377,116.8463,295.13,62,5,6.54,AU,1699818513
306,richards bay,-28.783,32.0377,293.36,80,100,5.41,ZA,1699818745
307,alofi,-19.0595,-169.9187,296.09,94,100,6.69,NU,1699818595
308,tsiombe,-25.3,45.4833,295.11,74,0,1.42,MG,1699818745
309,doctor arroyo,23.6667,-100.1833,289.74,80,100,4.49,MX,1699818745
310,hun,29.1268,15.9477,294.07,52,0,3.73,LY,1699818746
311,cidreira,-30.1811,-50.2056,292.86,96,100,4.35,BR,1699818746
312,callao,-12.0667,-77.15,296.31,68,40,4.63,PE,1699818332
313,senador jose porfirio,-2.5908,-51.9542,306.96,45,88,0.2,BR,1699818746
314,san jose del guaviare,2.5729,-72.6459,303.46,66,32,1.2,CO,1699818747
315,nova sintra,14.8667,-24.7167,296.61,68,29,6.37,CV,1699818279
316,ajaokuta,7.5623,6.655,301.26,63,1,1.92,NG,1699818747
317,anadyr,64.75,177.4833,272.43,92,20,7.0,RU,1699818343
318,daru,-9.0763,143.2092,297.8,81,50,3.69,PG,1699818358
319,brigantine,39.4101,-74.3646,284.27,62,20,3.09,US,1699818668
320,mejit,10.2753,170.8646,301.14,81,74,8.21,MH,1699818748
321,mogocha,53.7333,119.7667,262.2,68,0,1.33,RU,1699818748
322,la toma,-33.0526,-65.6238,288.78,28,0,8.06,AR,1699818748
323,medicine hat,50.0501,-110.6683,284.11,33,20,7.2,CA,1699818749
324,kalajoki,64.25,23.95,272.54,79,100,5.05,FI,1699818749
325,sergeyevka,53.88,67.4158,276.3,93,100,2.48,KZ,1699818749
326,neufchatel-en-bray,49.7332,1.4396,285.46,95,100,6.72,FR,1699818750
327,kamen'-na-obi,53.7884,81.3423,278.02,94,100,5.67,RU,1699818750
328,glace bay,46.1969,-59.957,276.92,74,75,7.2,CA,1699818750
329,hasaki,35.7333,140.8333,280.53,85,88,10.78,JP,1699818358
330,kyshtovka,56.555,76.6271,272.78,77,100,4.02,RU,1699818604
331,puerto armuelles,8.2833,-82.8667,304.14,84,100,3.13,PA,1699818303
332,singera,46.9131,28.9775,279.54,81,0,2.06,MD,1699818751
333,brindisi,40.5833,17.6667,288.7,91,89,3.33,IT,1699818751
334,forres,57.6113,-3.6108,277.13,94,20,4.63,GB,1699818751
335,lospalos,-8.5186,127.0025,294.36,93,8,0.93,TL,1699818752
336,geraldton,-28.7667,114.6,291.38,77,0,3.09,AU,1699818582
337,mugia,43.1041,-9.2179,292.68,96,74,11.06,ES,1699818752
338,carnarvon,-24.8667,113.6333,293.61,84,19,2.99,AU,1699818752
339,carloforte,39.145,8.3058,292.65,72,25,9.41,IT,1699818753
340,san luis de la loma,17.2706,-100.8939,303.71,66,51,2.99,MX,1699818753
341,amlapura,-8.45,115.6167,298.3,89,30,2.31,ID,1699818753
342,carhaix-plouguer,48.2759,-3.5733,285.24,98,100,3.12,FR,1699818753
343,hammerfest,70.6634,23.6821,267.4,73,0,2.06,NO,1699818605
344,crane,31.3974,-102.3501,288.81,66,100,4.88,US,1699818754
345,gulf shores,30.246,-87.7008,295.18,84,100,2.57,US,1699818754
346,millerovo,48.9226,40.3967,283.13,67,35,8.97,RU,1699818755
347,flin flon,54.7682,-101.865,273.06,100,100,2.06,CA,1699818755
348,port saint john's,-31.6229,29.5448,291.65,68,74,4.75,ZA,1699818755
349,haiku-pauwela,20.9219,-156.3051,299.91,63,20,10.8,US,1699818756
350,umm kaddadah,13.6017,26.6876,304.04,26,97,3.42,SD,1699818756
351,tura,25.5198,90.2201,291.32,86,0,1.83,IN,1699818420
352,nuku'alofa,-21.1333,-175.2,294.34,94,100,4.63,TO,1699818757
353,aripuana,-9.1667,-60.6333,308.35,39,78,1.16,BR,1699818758
354,hirara,24.8,125.2833,295.07,88,75,8.75,JP,1699818758
355,chui,-33.6971,-53.4616,289.79,83,100,0.75,UY,1699818758
356,makoua,0.0069,15.6333,295.86,99,100,1.29,CG,1699818686
357,linevo,54.4589,83.3764,275.47,96,100,5.31,RU,1699818759
358,bovril,-31.3431,-59.4451,295.88,95,100,4.0,AR,1699818759
359,san antonio de pale,-1.4014,5.6325,299.56,84,100,5.47,GQ,1699818760
360,cockburn town,21.4612,-71.1419,301.39,77,0,8.46,TC,1699818760
361,alice springs,-23.7,133.8833,295.9,68,59,3.6,AU,1699818760
362,waltham,42.3765,-71.2356,280.14,54,20,4.63,US,1699818760
363,romankivtsi,48.4847,27.2138,279.48,72,100,5.86,UA,1699818761
364,robertsport,6.7533,-11.3686,300.43,83,90,3.76,LR,1699818761
365,bathsheba,13.2167,-59.5167,301.49,78,40,9.77,BB,1699818761
366,las khorey,11.1595,48.1967,300.86,77,23,3.5,SO,1699818761
367,al jawf,29.5,38.75,296.83,29,20,4.84,SA,1699818762
368,benghazi,32.1167,20.0667,295.35,67,25,4.21,LY,1699818762
369,zhosaly,45.4878,64.0781,278.02,73,24,3.73,KZ,1699818590
370,greymouth,-42.4667,171.2,287.82,76,85,3.26,NZ,1699818762
371,zeya,53.75,127.2667,269.53,42,11,4.22,RU,1699818763
372,waingapu,-9.6567,120.2641,299.76,82,100,1.45,ID,1699818763
373,namibe,-15.1961,12.1522,295.11,76,100,1.63,AO,1699818464
374,floro,61.5996,5.0328,278.69,70,0,4.12,NO,1699818299
375,makinsk,52.6292,70.4169,276.48,93,100,4.4,KZ,1699818764
376,hithadhoo,-0.6,73.0833,300.29,81,81,2.44,MV,1699818593
377,flying fish cove,-10.4217,105.6791,297.97,88,100,4.63,CX,1699818765
378,trevelin,-43.0858,-71.4639,282.86,48,40,5.18,AR,1699818765
379,paphos,34.7667,32.4167,293.03,73,49,2.57,CY,1699818608
380,saveh,35.0213,50.3566,289.15,41,79,0.09,IR,1699818765
381,tazovsky,67.4667,78.7,268.21,95,100,5.98,RU,1699818487
382,tadine,-21.55,167.8833,295.23,67,95,8.57,NC,1699818766
383,leninskoye,41.7589,69.3864,278.05,56,0,2.22,KZ,1699818766
384,garachico,28.7781,-17.7646,294.21,73,40,3.6,ES,1699818766
385,ritchie,-29.038,24.6028,293.71,23,0,3.87,ZA,1699818767
386,humaita,-7.5061,-63.0208,302.7,63,78,3.16,BR,1699818767
387,santa marta de ortigueira,43.6833,-7.85,292.18,77,90,2.68,ES,1699818768
388,nguigmi,14.2495,13.1092,301.13,20,3,5.19,NE,1699818768
389,buchloe,48.0333,10.7333,279.41,89,100,1.03,DE,1699818768
390,dali,25.7,100.1833,283.65,86,0,1.06,CN,1699818768
391,changji,44.0167,87.3167,275.59,87,40,0.0,CN,1699818769
392,dauphin,51.1494,-100.0502,277.23,75,0,8.75,CA,1699818617
393,sylvan lake,52.3168,-114.0853,279.46,45,0,4.12,CA,1699818769
394,brak,27.5496,14.2714,295.59,31,0,3.05,LY,1699818769
395,puente nacional,5.8774,-73.6781,295.93,88,93,0.63,CO,1699818770
396,uyar,55.81,94.3153,265.96,86,100,2.01,RU,1699818770
397,fortuna,40.5982,-124.1573,289.22,81,0,0.45,US,1699818345
398,bundibugyo,0.7414,30.0417,293.34,93,90,1.47,UG,1699818770
399,ushtobe,45.2514,77.9838,278.06,81,99,5.59,KZ,1699818771
400,guajara mirim,-10.7828,-65.3394,308.24,49,75,3.6,BR,1699818678
401,derzhavinsk,51.1,66.3167,277.09,93,59,3.58,KZ,1699818771
402,london,51.5085,-0.1257,283.03,93,75,1.79,GB,1699818574
403,azuaga,38.2667,-5.6833,289.24,85,0,1.35,ES,1699818771
404,mogadishu,2.0371,45.3438,300.22,81,71,3.53,SO,1699818772
405,pacific grove,36.6177,-121.9166,296.16,64,0,3.58,US,1699818772
406,finspang,58.7058,15.7674,275.43,91,100,2.56,SE,1699818772
407,santa rosalia,27.3167,-112.2833,296.8,43,0,3.16,MX,1699818683
408,dolores,-36.3132,-57.6792,296.09,27,79,5.5,AR,1699818772
409,midvagur,62.0511,-7.1939,278.61,81,100,5.14,FO,1699818773
410,anaconda,46.1285,-112.9423,282.7,34,100,2.02,US,1699818773
411,port augusta,-32.5,137.7667,288.54,47,100,3.81,AU,1699818448
412,lerwick,60.1545,-1.1494,281.15,79,17,5.3,GB,1699818773
413,punta alta,-38.8759,-62.0736,293.75,21,1,4.79,AR,1699818774
414,komsomol'skiy,43.9783,46.6985,284.91,91,12,2.95,RU,1699818774
415,yen bai,21.7,104.8667,294.33,94,100,1.58,VN,1699818774
416,ceelbuur,4.685,46.6176,300.03,77,61,4.63,SO,1699818774
417,uzgen,40.7699,73.3007,278.31,59,34,0.99,KG,1699818775
418,aras-asan,8.8908,126.3033,298.76,88,28,2.39,PH,1699818775
419,veshenskaya,49.6303,41.7334,283.77,89,94,10.28,RU,1699818775
420,kitimat,54.0524,-128.6534,276.36,64,100,1.79,CA,1699818776
421,eraan,9.0629,117.7016,298.82,85,20,1.5,PH,1699818776
422,gloversville,43.0528,-74.3438,278.0,73,6,1.5,US,1699818776
423,pundong,-7.9522,110.3486,298.13,89,60,1.57,ID,1699818777
424,nueva gerona,21.8833,-82.8,301.99,57,100,3.52,CU,1699818777
425,tchintabaraden,15.8969,5.7985,300.86,13,0,4.48,NE,1699818777
426,aleksandrovsk-sakhalinskiy,50.8975,142.1561,266.24,81,100,6.33,RU,1699818777
427,thal,35.4791,72.2439,278.44,56,6,3.07,PK,1699818778
428,tolanaro,-25.0319,46.9987,295.19,78,0,8.23,MG,1699818778
429,ishigaki,24.3448,124.1572,294.22,83,75,7.72,JP,1699818778
430,tucuma,-0.1833,-50.05,303.96,53,7,4.86,BR,1699818778
431,myitkyina,25.3833,97.4,290.31,74,0,0.99,MM,1699818524
432,vanimo,-2.6741,141.3028,298.34,90,97,2.04,PG,1699818779
433,belyy yar,53.6039,91.3903,262.09,92,100,1.0,RU,1699818780
434,mayya,61.7333,130.2811,258.77,93,98,3.72,RU,1699818780
435,chos malal,-37.3781,-70.2709,290.22,25,1,7.47,AR,1699818781
436,khanbari,27.3747,87.2039,287.72,69,1,1.99,NP,1699818781
437,molde,62.7375,7.1591,274.1,80,0,4.12,NO,1699818781
438,amurrio,43.05,-3.0,292.94,82,57,3.72,ES,1699818782
439,mezhdurechenskiy,59.6,65.9333,271.29,96,25,1.93,RU,1699818782
440,mhamid,29.82,-5.72,297.46,24,5,3.21,MA,1699818782
441,kenai,60.5544,-151.2583,259.2,92,0,2.06,US,1699818503
442,east london,-33.0153,27.9116,289.42,71,1,5.42,ZA,1699818783
443,santo antonio do ica,-3.1022,-67.9397,306.32,55,81,0.14,BR,1699818783
444,sathupalli,17.2497,80.869,294.85,87,100,0.67,IN,1699818783
445,karapinar,37.716,33.5506,287.55,48,57,5.03,TR,1699818783
446,margate,51.3813,1.3862,282.76,89,100,2.24,GB,1699818432
447,baiyin,36.5583,104.2081,271.01,68,1,0.8,CN,1699818784
448,macau,22.2006,113.5461,294.04,78,40,9.26,MO,1699818784
449,vilhena,-12.7406,-60.1458,300.27,78,75,0.51,BR,1699818785
450,ketchikan,55.3422,-131.6461,279.41,70,0,3.09,US,1699818785
451,mata-utu,-13.2816,-176.1745,301.8,75,41,7.13,WF,1699818785
452,buka,40.8108,69.1986,281.25,52,4,3.22,UZ,1699818786
453,caleta de carquin,-11.0925,-77.6267,294.97,76,46,5.17,PE,1699818481
454,buon ma thuot,12.6667,108.05,294.19,93,29,1.92,VN,1699818786
455,sumbe,-11.2061,13.8437,298.63,90,99,3.34,AO,1699818626
456,bykovo,55.6361,38.0803,281.38,92,40,9.0,RU,1699818563
457,nizhneudinsk,54.9076,99.0276,262.68,90,56,1.47,RU,1699818787
458,viedma,-40.8135,-62.9967,290.45,14,3,7.1,AR,1699818788
459,plettenberg bay,-34.0527,23.3716,286.88,78,0,2.29,ZA,1699818513
460,buala,-8.145,159.5921,299.62,83,100,2.05,SB,1699818788
461,tangalle,6.024,80.7911,297.42,93,100,2.19,LK,1699818788
462,imbituba,-28.24,-48.6703,295.52,97,99,2.26,BR,1699818612
463,sukumo,32.9333,132.7333,284.13,62,72,6.03,JP,1699818789
464,isangel,-19.55,169.2667,295.72,72,100,7.94,VU,1699818789
465,newport,51.5877,-2.9984,285.45,91,100,3.76,GB,1699818278
466,weno,7.4515,151.8468,298.12,100,100,2.06,FM,1699818790
467,reserva,-24.6503,-50.8506,304.1,43,28,1.56,BR,1699818671
468,chonchi,-42.6128,-73.8092,285.44,52,90,0.71,CL,1699818791
469,nabire,-3.3667,135.4833,296.99,86,100,2.01,ID,1699818791
470,baie-comeau,49.2168,-68.1489,271.97,69,100,3.09,CA,1699818791
471,bonthe,7.5264,-12.505,299.51,86,59,3.2,SL,1699818792
472,sao joao da barra,-21.6403,-41.0511,307.2,81,54,5.48,BR,1699818792
473,yaren,-0.5472,166.916,301.68,80,97,11.26,NR,1699818793
474,mocimboa,-11.3167,40.35,298.84,87,20,2.35,MZ,1699818793
475,bo rai,12.5728,102.5371,297.64,92,100,2.09,TH,1699818793
476,youkounkoun,12.5333,-13.1333,301.96,31,12,0.38,GN,1699818794
477,broome,42.2506,-75.833,277.98,69,100,2.06,US,1699818794
478,napili-honokowai,20.9708,-156.6705,301.66,78,6,8.47,US,1699818794
479,gadzhiyevo,69.2551,33.3362,265.08,98,89,4.35,RU,1699818795
480,dalnegorsk,44.5604,135.5701,266.82,81,82,4.47,RU,1699818795
481,brokopondo,4.75,-55.1667,306.62,45,3,1.32,SR,1699818795
482,petropavlovsk-kamchatsky,53.0452,158.6483,270.07,74,75,12.52,RU,1699818796
483,dazkiri,37.9186,29.8606,285.95,72,100,2.31,TR,1699818796
484,kudymkar,59.0173,54.656,273.22,82,100,2.06,RU,1699818797
485,raceland,29.7274,-90.599,295.14,83,100,4.12,US,1699818797
486,minot,48.2325,-101.2963,285.27,40,0,9.26,US,1699818695
487,kuanda,56.3161,116.0806,255.57,93,49,0.56,RU,1699818798
488,kesinga,20.2,83.2333,293.71,72,35,0.75,IN,1699818798
489,holualoa,19.6228,-155.9522,299.57,77,40,3.6,US,1699818798
490,sisimiut,66.9395,-53.6735,265.24,83,90,4.22,GL,1699818798
491,magadan,59.5667,150.8,261.67,66,100,5.01,RU,1699818522
492,dwarka,22.2394,68.9678,299.62,41,100,4.03,IN,1699818799
493,dryden,49.7833,-92.7503,274.31,93,100,3.6,CA,1699818799
494,berezovyy,51.6667,135.7,262.22,70,22,1.6,RU,1699818419
495,poronaysk,49.2167,143.1167,264.12,85,50,3.17,RU,1699818799
496,kangding,30.0513,101.9603,277.62,81,45,1.63,CN,1699818800
497,toliara,-23.35,43.6667,296.93,78,0,0.47,MG,1699818800
498,dire dawa,9.5931,41.8661,294.42,76,40,0.95,ET,1699818800
499,lazaro cardenas,17.9583,-102.2,304.03,63,22,3.18,MX,1699818801
500,harper,4.375,-7.7169,299.38,87,56,3.31,LR,1699818801
501,kutoarjo,-7.7169,109.9128,297.92,89,76,1.26,ID,1699818801
502,black river,18.0264,-77.8487,304.18,63,43,3.72,JM,1699818801
503,dabhol,17.6,73.1667,298.49,67,44,2.45,IN,1699818802
504,emerald,-23.5333,148.1667,290.01,77,0,3.29,AU,1699818802
505,ust-tsilma,65.441,52.1498,267.78,96,96,1.19,RU,1699818313
506,severo-yeniseyskiy,60.3725,93.0408,269.03,98,100,0.89,RU,1699818581
507,wenling,28.3669,121.36,281.53,63,11,7.1,CN,1699818804
508,aban,56.67,96.06,266.29,84,100,2.02,RU,1699818804
509,petrolina,-9.3986,-40.5008,307.18,24,40,5.14,BR,1699818539
510,mariinsk,56.2139,87.7472,273.81,97,100,1.81,RU,1699818805
511,sungai raya,0.7,108.9,298.41,90,100,1.47,ID,1699818806
512,sangin,32.0728,64.8359,288.45,30,5,0.71,AF,1699818806
513,santa ana,33.7456,-117.8678,304.49,11,0,2.57,US,1699818777
514,las tablas,7.7667,-80.2833,298.81,92,100,5.2,PA,1699818807
515,frechen,50.9167,6.8167,280.27,85,75,1.03,DE,1699818807
516,namtsy,62.7161,129.6658,257.44,92,74,5.13,RU,1699818808
517,yerofey pavlovich,53.9667,121.9667,263.52,60,54,1.23,RU,1699818809
518,rio verde de mato grosso,-18.9181,-54.8442,312.49,18,90,4.33,BR,1699818809
519,shanwei,22.782,115.3475,292.64,70,100,4.42,CN,1699818809
520,maslyanino,54.3436,84.2111,275.6,99,100,4.62,RU,1699818810
521,ulanhot,46.0833,122.0833,267.23,59,0,4.35,CN,1699818810
522,roma,43.2128,-75.4557,278.12,58,0,1.54,US,1699818665
523,marquelia,16.5833,-98.8167,303.89,66,6,3.88,MX,1699818811
524,saynshand,44.8824,110.1163,264.04,65,4,2.82,MN,1699818811
525,grand falls-windsor,48.9332,-55.6649,272.32,77,32,0.89,CA,1699818619
526,letlhakeng,-24.0944,25.0298,300.92,32,56,1.3,BW,1699818663
527,qamdo,31.1667,97.2333,264.78,46,1,1.34,CN,1699818812
528,la paz,-16.5,-68.15,288.47,52,75,5.66,BO,1699818557
529,general pico,-35.6566,-63.7568,288.7,28,100,1.39,AR,1699818671
530,sanming,26.2486,117.6186,287.28,94,97,1.46,CN,1699818814
531,inirida,3.8653,-67.9239,300.73,84,99,1.87,CO,1699818814
532,traverse city,44.7631,-85.6206,285.19,39,75,7.2,US,1699818576
533,peniscola,40.3359,0.3613,292.97,61,96,1.71,ES,1699818511
534,howard springs,-12.497,131.047,300.1,82,84,1.45,AU,1699818431
535,veraval,20.9,70.3667,299.61,35,100,4.11,IN,1699818815
536,murghob,38.1702,73.9667,264.24,68,3,2.82,TJ,1699818815
537,cabo san lucas,22.8909,-109.9124,303.49,61,23,2.24,MX,1699818816
538,port hueneme,34.1478,-119.1951,304.57,23,0,4.12,US,1699818816
539,motueka,-41.1333,173.0167,288.91,60,100,1.3,NZ,1699818816
540,guarapari,-20.6667,-40.4975,301.98,78,27,5.18,BR,1699818816
541,wahpeton,46.2652,-96.6059,287.16,41,0,8.75,US,1699818817
542,frontera,26.9333,-101.45,286.89,90,100,1.04,MX,1699818817
543,sur,22.5667,59.5289,298.94,55,100,1.47,OM,1699818817
544,madison,34.7334,-86.5667,290.63,64,100,1.54,US,1699818791
545,motygino,58.1831,94.7592,263.03,93,100,0.45,RU,1699818818
546,benalla,-36.55,145.9833,282.21,78,75,2.21,AU,1699818818
547,lichinga,-13.3128,35.2406,295.2,78,75,3.6,MZ,1699818819
548,masterton,-40.9597,175.6575,286.97,68,100,3.93,NZ,1699818819
549,castanos,26.7833,-101.4167,286.32,93,100,1.77,MX,1699818819
550,lionel town,17.8101,-77.2406,307.09,63,22,6.43,JM,1699818820
551,luchegorsk,46.4764,134.2569,261.66,93,99,3.68,RU,1699818820
552,labrador city,52.9463,-66.9114,268.1,74,100,6.69,CA,1699818314
553,cape canaveral,28.4058,-80.6048,300.4,83,100,6.69,US,1699818821
554,cassia,-20.5831,-46.9219,309.01,20,78,1.9,BR,1699818821
555,gilgit,35.9221,74.3087,282.3,41,2,1.17,PK,1699818821
556,tanumah,27.1,44.1333,297.36,28,100,3.03,SA,1699818822
557,sijunjung,-0.6876,100.9537,296.43,97,100,0.28,ID,1699818822
558,arawa,-6.2132,155.5367,298.02,89,52,2.52,PG,1699818822
559,el abiodh sidi cheikh,32.893,0.5484,290.94,21,97,1.99,DZ,1699818822
560,konarka,19.9,86.1167,295.37,72,97,3.4,IN,1699818823
561,sayat,38.7839,63.8803,280.08,29,88,4.39,TM,1699818823
562,nagqu,31.5,92.0,261.48,46,0,1.33,CN,1699818823
563,zheleznogorsk-ilimskiy,56.5768,104.1217,260.02,93,100,1.34,RU,1699818823
564,gillette,44.2911,-105.5022,288.77,20,0,6.17,US,1699818824
565,castillos,-34.1667,-53.8333,291.84,73,100,3.33,UY,1699818824
566,murray,40.6669,-111.888,290.66,25,0,4.63,US,1699818824
567,bhadarwah,32.9833,75.7167,282.78,67,0,1.38,IN,1699818824
568,igarka,67.4667,86.5833,272.41,97,100,6.41,RU,1699818824
569,saint-paul,-21.0096,55.2707,294.21,78,21,0.53,RE,1699818825
570,ugoofaaru,5.6667,73.0,300.41,77,100,0.97,MV,1699818825
571,coyhaique,-45.5752,-72.0662,283.49,49,75,3.09,CL,1699818825
572,guatrache,-37.6678,-63.5302,293.03,13,24,5.06,AR,1699818825
573,igis,46.9453,9.5722,283.48,98,100,1.88,CH,1699818827
574,betio village,1.358,172.9211,300.17,82,100,3.73,KI,1699818827
575,brooks,50.5834,-111.8851,284.14,29,11,5.66,CA,1699818828
576,puerto baquerizo moreno,-0.9,-89.6,301.7,65,40,7.72,EC,1699818828
577,novaya igirma,57.1334,103.9112,260.04,97,100,1.07,RU,1699818828
578,jiuquan,39.7432,98.5174,270.97,41,0,1.13,CN,1699818829
579,samitah,16.596,42.9444,302.35,68,33,1.49,SA,1699818829
580,mahanoro,-19.9,48.8,295.75,77,100,1.69,MG,1699818829
581,dudinka,69.4058,86.1778,272.41,98,100,7.6,RU,1699818443
582,rio de loba,40.666,-7.8778,289.5,98,100,2.57,PT,1699818830
583,new norfolk,-42.7826,147.0587,283.87,78,16,1.68,AU,1699818830
584,mabaruma,8.2,-59.7833,301.79,72,98,3.12,GY,1699818830
585,brisas de zicatela,15.8369,-97.0419,304.44,51,0,4.63,MX,1699818588
586,urengoy,65.9667,78.3667,269.77,97,100,4.43,RU,1699818831
587,lauro de freitas,-12.8944,-38.3272,301.16,69,0,7.72,BR,1699818322
588,noumea,-22.2763,166.4572,296.48,99,99,5.26,NC,1699818612
589,valdivia,-39.8142,-73.2459,284.2,42,56,3.29,CL,1699818728
590,trairi,-3.2778,-39.2689,300.67,66,0,5.79,BR,1699818831
591,stephenville,32.2207,-98.2023,290.59,68,40,1.54,US,1699818832
592,qarauyl,48.9451,79.255,274.75,79,66,7.28,KZ,1699818832
593,pakur,24.6333,87.85,294.22,56,45,1.9,IN,1699818832
594,rexburg,43.826,-111.7897,285.37,36,0,0.0,US,1699818741
595,maragogi,-9.0122,-35.2225,299.35,66,2,4.44,BR,1699818498
596,zhuanghe,39.7008,122.9911,269.22,61,0,3.01,CN,1699818833
597,yugorsk,61.3133,63.3319,270.87,97,94,2.2,RU,1699818833
598,banda aceh,5.5577,95.3222,299.68,80,100,2.74,ID,1699818833
599,bronnitsy,55.4194,38.2708,281.47,93,40,9.0,RU,1699818833
600,luau,-10.7073,22.2247,292.3,91,97,2.12,AO,1699818834
601,sabha,27.0377,14.4283,295.32,25,0,2.38,LY,1699818834
602,guiuan,11.0333,125.7247,301.59,78,46,4.82,PH,1699818474
603,aginskoye,51.1,114.53,260.89,88,5,1.91,RU,1699818444
604,coahuayana de hidalgo,18.7,-103.6583,305.31,58,1,2.71,MX,1699818834
605,nantucket,41.2835,-70.0995,280.23,61,40,1.54,US,1699818705
606,lobito,-12.3481,13.5456,299.44,81,82,1.32,AO,1699818835
607,tommot,58.9564,126.2925,262.22,92,100,4.47,RU,1699818835
608,al bardiyah,31.7561,25.0865,294.63,78,5,2.68,LY,1699818835
609,pak phanang,8.3511,100.202,299.73,84,95,3.15,TH,1699818835
610,turpan,42.9333,89.1667,279.04,31,14,0.67,CN,1699818836
611,kemise,10.7167,39.8667,292.3,78,64,1.15,ET,1699818836
612,ebebiyin,2.1511,11.3353,294.54,98,99,0.96,GQ,1699818836
613,askoy,60.4092,5.226,276.34,75,40,0.51,NO,1699818836
614,al kharj,24.155,47.3346,298.47,45,82,3.7,SA,1699818837
615,wloclawek,52.6482,19.0678,279.09,85,100,3.86,PL,1699818837
616,ribeira brava,32.65,-17.0667,294.66,79,72,1.64,PT,1699818837
617,remire-montjoly,4.9167,-52.2667,301.48,75,45,4.19,GF,1699818837
618,selfoss,63.9331,-20.9971,276.51,70,100,6.93,IS,1699818837
